{
  "$schema": "https://geojson.org/schema/GeoJSON.json",
  "type": "FeatureCollection",
  "name": "Transit Systems",
  "features": [
    {
      "type": "Feature",
      "properties": { "name": "Metro do Porto", "operator": "ViaPorto" },
      "geometry": {
        "coordinates": [-8.609360018528179, 41.1525188565968],
        "type": "Point"
      }
    },
    {
      "type": "Feature",
      "properties": {
        "name": "Metro de Lisboa",
        "operator": "Metropolitano de Lisboa, EPE"
      },
      "geometry": {
        "coordinates": [-9.136139874101929, 38.70821735404411],
        "type": "Point"
      }
    },
    {
      "type": "Feature",
      "properties": { "name": "Métro de Paris", "operator": "RATP" },
      "geometry": {
        "coordinates": [2.3469764575500847, 48.86137425199249],
        "type": "Point"
      }
    },
    {
      "type": "Feature",
      "properties": { "name": "Métro de Bruxelles", "operator": "STIB" },
      "geometry": {
        "coordinates": [4.357223642811988, 50.845622980193184],
        "type": "Point"
      }
    },
    {
      "type": "Feature",
      "properties": { "name": "Berlin U-Bahn", "operator": "BVG" },
      "geometry": {
        "coordinates": [13.411272061833643, 52.52159804697126],
        "type": "Point"
      },
      "id": 4
    },
    {
      "type": "Feature",
      "properties": { "name": "Vienna U-Bahn", "operator": "Wiener Linien" },
      "geometry": {
        "coordinates": [16.377063952952625, 48.21181151167352],
        "type": "Point"
      }
    },
    {
      "type": "Feature",
      "properties": { "name": "Amsterdam Metro", "operator": "GVB" },
      "geometry": {
        "coordinates": [4.901789671442174, 52.37834893382532],
        "type": "Point"
      }
    },
    {
      "type": "Feature",
      "properties": {
        "name": "London Underground",
        "operator": "London Underground Limited"
      },
      "geometry": {
        "coordinates": [-0.12816646115652475, 51.50994922697305],
        "type": "Point"
      }
    },
    {
      "type": "Feature",
      "properties": { "name": "Rotterdam Metro", "operator": "RET" },
      "geometry": {
        "coordinates": [4.470670151830092, 51.92410370365471],
        "type": "Point"
      }
    },
    {
      "type": "Feature",
      "properties": {
        "name": "Prague Tramway Network",
        "operator": "Prague Public Transit Company"
      },
      "geometry": {
        "coordinates": [14.43054187743553, 50.08373997468439],
        "type": "Point"
      }
    },
    {
      "type": "Feature",
      "properties": { "name": "Luxembourg Trams", "operator": "LuxTram" },
      "geometry": {
        "coordinates": [6.130791237726896, 49.60383470111384],
        "type": "Point"
      },
      "id": 10
    },
    {
      "type": "Feature",
      "properties": {
        "name": "Transportes Urbanos de Coimbra",
        "operator": "SMTUC"
      },
      "geometry": {
        "coordinates": [-8.428763348962491, 40.208908038757386],
        "type": "Point"
      }
    },
    {
      "type": "Feature",
      "properties": { "name": "EMT", "operator": "Ayuntamiento de Málaga" },
      "geometry": {
        "coordinates": [-4.423150736988049, 36.717621191373155],
        "type": "Point"
      }
    }
  ]
}
